{
"type": "FeatureCollection",
"name": "airports",
"crs": { "type": "name", "properties": { "name": "urn:ogc:def:crs:OGC:1.3:CRS84" } },
"features": [
{ "type": "Feature", "properties": { "iata": "00M", "title": "Thigpen", "city": "Bay Springs", "state": "MS", "country": "USA", "latitude": 31.95376472, "longitude": -89.23450472 }, "geometry": { "type": "Point", "coordinates": [ -89.23450472, 31.95376472 ] } },
{ "type": "Feature", "properties": { "iata": "00R", "title": "Livingston Municipal", "city": "Livingston", "state": "TX", "country": "USA", "latitude": 30.68586111, "longitude": -95.01792778 }, "geometry": { "type": "Point", "coordinates": [ -95.01792778, 30.68586111 ] } },
{ "type": "Feature", "properties": { "iata": "00V", "title": "Meadow Lake", "city": "Colorado Springs", "state": "CO", "country": "USA", "latitude": 38.94574889, "longitude": -104.5698933 }, "geometry": { "type": "Point", "coordinates": [ -104.5698933, 38.94574889 ] } },
{ "type": "Feature", "properties": { "iata": "01G", "title": "Perry-Warsaw", "city": "Perry", "state": "NY", "country": "USA", "latitude": 42.74134667, "longitude": -78.05208056 }, "geometry": { "type": "Point", "coordinates": [ -78.05208056, 42.74134667 ] } },
{ "type": "Feature", "properties": { "iata": "01J", "title": "Hilliard Airpark", "city": "Hilliard", "state": "FL", "country": "USA", "latitude": 30.6880125, "longitude": -81.90594389 }, "geometry": { "type": "Point", "coordinates": [ -81.90594389, 30.6880125 ] } },
{ "type": "Feature", "properties": { "iata": "01M", "title": "Tishomingo County", "city": "Belmont", "state": "MS", "country": "USA", "latitude": 34.49166667, "longitude": -88.20111111 }, "geometry": { "type": "Point", "coordinates": [ -88.20111111, 34.49166667 ] } },
{ "type": "Feature", "properties": { "iata": "02A", "title": "Gragg-Wade", "city": "Clanton", "state": "AL", "country": "USA", "latitude": 32.85048667, "longitude": -86.61145333 }, "geometry": { "type": "Point", "coordinates": [ -86.61145333, 32.85048667 ] } },
{ "type": "Feature", "properties": { "iata": "02C", "title": "Capitol", "city": "Brookfield", "state": "WI", "country": "USA", "latitude": 43.08751, "longitude": -88.17786917 }, "geometry": { "type": "Point", "coordinates": [ -88.17786917, 43.08751 ] } },
{ "type": "Feature", "properties": { "iata": "02G", "title": "Columbiana County", "city": "East Liverpool", "state": "OH", "country": "USA", "latitude": 40.67331278, "longitude": -80.64140639 }, "geometry": { "type": "Point", "coordinates": [ -80.64140639, 40.67331278 ] } },
{ "type": "Feature", "properties": { "iata": "03D", "title": "Memphis Memorial", "city": "Memphis", "state": "MO", "country": "USA", "latitude": 40.44725889, "longitude": -92.22696056 }, "geometry": { "type": "Point", "coordinates": [ -92.22696056, 40.44725889 ] } },
{ "type": "Feature", "properties": { "iata": "04M", "title": "Calhoun County", "city": "Pittsboro", "state": "MS", "country": "USA", "latitude": 33.93011222, "longitude": -89.34285194 }, "geometry": { "type": "Point", "coordinates": [ -89.34285194, 33.93011222 ] } },
{ "type": "Feature", "properties": { "iata": "04Y", "title": "Hawley Municipal", "city": "Hawley", "state": "MN", "country": "USA", "latitude": 46.88384889, "longitude": -96.35089861 }, "geometry": { "type": "Point", "coordinates": [ -96.35089861, 46.88384889 ] } },
{ "type": "Feature", "properties": { "iata": "05C", "title": "Griffith-Merrillville", "city": "Griffith", "state": "IN", "country": "USA", "latitude": 41.51961917, "longitude": -87.40109333 }, "geometry": { "type": "Point", "coordinates": [ -87.40109333, 41.51961917 ] } },
{ "type": "Feature", "properties": { "iata": "05F", "title": "Gatesville - City\/County", "city": "Gatesville", "state": "TX", "country": "USA", "latitude": 31.42127556, "longitude": -97.79696778 }, "geometry": { "type": "Point", "coordinates": [ -97.79696778, 31.42127556 ] } },
{ "type": "Feature", "properties": { "iata": "05U", "title": "Eureka", "city": "Eureka", "state": "NV", "country": "USA", "latitude": 39.60416667, "longitude": -116.0050597 }, "geometry": { "type": "Point", "coordinates": [ -116.0050597, 39.60416667 ] } },
{ "type": "Feature", "properties": { "iata": "06A", "title": "Moton  Municipal", "city": "Tuskegee", "state": "AL", "country": "USA", "latitude": 32.46047167, "longitude": -85.68003611 }, "geometry": { "type": "Point", "coordinates": [ -85.68003611, 32.46047167 ] } },
{ "type": "Feature", "properties": { "iata": "06C", "title": "Schaumburg", "city": "Chicago\/Schaumburg", "state": "IL", "country": "USA", "latitude": 41.98934083, "longitude": -88.10124278000001 }, "geometry": { "type": "Point", "coordinates": [ -88.10124278, 41.98934083 ] } },
{ "type": "Feature", "properties": { "iata": "06D", "title": "Rolla Municipal", "city": "Rolla", "state": "ND", "country": "USA", "latitude": 48.88434111, "longitude": -99.62087694 }, "geometry": { "type": "Point", "coordinates": [ -99.62087694, 48.88434111 ] } },
{ "type": "Feature", "properties": { "iata": "06M", "title": "Eupora Municipal", "city": "Eupora", "state": "MS", "country": "USA", "latitude": 33.53456583, "longitude": -89.31256917 }, "geometry": { "type": "Point", "coordinates": [ -89.31256917, 33.53456583 ] } },
{ "type": "Feature", "properties": { "iata": "06N", "title": "Randall", "city": "Middletown", "state": "NY", "country": "USA", "latitude": 41.43156583, "longitude": -74.39191722 }, "geometry": { "type": "Point", "coordinates": [ -74.39191722, 41.43156583 ] } },
{ "type": "Feature", "properties": { "iata": "06U", "title": "Jackpot\/Hayden", "city": "Jackpot", "state": "NV", "country": "USA", "latitude": 41.97602222, "longitude": -114.6580911 }, "geometry": { "type": "Point", "coordinates": [ -114.6580911, 41.97602222 ] } },
{ "type": "Feature", "properties": { "iata": "07C", "title": "Dekalb County", "city": "Auburn", "state": "IN", "country": "USA", "latitude": 41.30716667, "longitude": -85.06433333 }, "geometry": { "type": "Point", "coordinates": [ -85.06433333, 41.30716667 ] } },
{ "type": "Feature", "properties": { "iata": "07F", "title": "Gladewater Municipal", "city": "Gladewater", "state": "TX", "country": "USA", "latitude": 32.52883861, "longitude": -94.97174556 }, "geometry": { "type": "Point", "coordinates": [ -94.97174556, 32.52883861 ] } },
{ "type": "Feature", "properties": { "iata": "07G", "title": "Fitch H Beach", "city": "Charlotte", "state": "MI", "country": "USA", "latitude": 42.57450861, "longitude": -84.81143139 }, "geometry": { "type": "Point", "coordinates": [ -84.81143139, 42.57450861 ] } },
{ "type": "Feature", "properties": { "iata": "07K", "title": "Central City Municipal", "city": "Central City", "state": "NE", "country": "USA", "latitude": 41.11668056, "longitude": -98.05033639 }, "geometry": { "type": "Point", "coordinates": [ -98.05033639, 41.11668056 ] } },
{ "type": "Feature", "properties": { "iata": "08A", "title": "Wetumpka Municipal", "city": "Wetumpka", "state": "AL", "country": "USA", "latitude": 32.52943944, "longitude": -86.32822139 }, "geometry": { "type": "Point", "coordinates": [ -86.32822139, 32.52943944 ] } },
{ "type": "Feature", "properties": { "iata": "08D", "title": "Stanley Municipal", "city": "Stanley", "state": "ND", "country": "USA", "latitude": 48.30079861, "longitude": -102.4063514 }, "geometry": { "type": "Point", "coordinates": [ -102.4063514, 48.30079861 ] } },
{ "type": "Feature", "properties": { "iata": "08K", "title": "Harvard State", "city": "Harvard", "state": "NE", "country": "USA", "latitude": 40.65138528, "longitude": -98.07978667 }, "geometry": { "type": "Point", "coordinates": [ -98.07978667, 40.65138528 ] } },
{ "type": "Feature", "properties": { "iata": "08M", "title": "Carthage-Leake County", "city": "Carthage", "state": "MS", "country": "USA", "latitude": 32.76124611, "longitude": -89.53007139 }, "geometry": { "type": "Point", "coordinates": [ -89.53007139, 32.76124611 ] } },
{ "type": "Feature", "properties": { "iata": "09A", "title": "Butler-Choctaw County", "city": "Butler", "state": "AL", "country": "USA", "latitude": 32.11931306, "longitude": -88.1274625 }, "geometry": { "type": "Point", "coordinates": [ -88.1274625, 32.11931306 ] } },
{ "type": "Feature", "properties": { "iata": "09J", "title": "Jekyll Island", "city": "Jekyll Island", "state": "GA", "country": "USA", "latitude": 31.07447222, "longitude": -81.42777778 }, "geometry": { "type": "Point", "coordinates": [ -81.42777778, 31.07447222 ] } },
{ "type": "Feature", "properties": { "iata": "09K", "title": "Sargent Municipal", "city": "Sargent", "state": "NE", "country": "USA", "latitude": 41.63695083, "longitude": -99.34038139 }, "geometry": { "type": "Point", "coordinates": [ -99.34038139, 41.63695083 ] } },
{ "type": "Feature", "properties": { "iata": "09M", "title": "Charleston Municipal", "city": "Charleston", "state": "MS", "country": "USA", "latitude": 33.99150222, "longitude": -90.078145 }, "geometry": { "type": "Point", "coordinates": [ -90.078145, 33.99150222 ] } },
{ "type": "Feature", "properties": { "iata": "09W", "title": "South Capitol Street", "city": "Washington", "state": "DC", "country": "USA", "latitude": 38.86872333, "longitude": -77.00747583 }, "geometry": { "type": "Point", "coordinates": [ -77.00747583, 38.86872333 ] } },
{ "type": "Feature", "properties": { "iata": "0A3", "title": "Smithville Municipal", "city": "Smithville", "state": "TN", "country": "USA", "latitude": 35.98531194, "longitude": -85.80931806 }, "geometry": { "type": "Point", "coordinates": [ -85.80931806, 35.98531194 ] } },
{ "type": "Feature", "properties": { "iata": "0A8", "title": "Bibb County", "city": "Centreville", "state": "AL", "country": "USA", "latitude": 32.93679056, "longitude": -87.08888306 }, "geometry": { "type": "Point", "coordinates": [ -87.08888306, 32.93679056 ] } },
{ "type": "Feature", "properties": { "iata": "0A9", "title": "Elizabethton Municipal", "city": "Elizabethton", "state": "TN", "country": "USA", "latitude": 36.37094306, "longitude": -82.17374111 }, "geometry": { "type": "Point", "coordinates": [ -82.17374111, 36.37094306 ] } },
{ "type": "Feature", "properties": { "iata": "0AK", "title": "Pilot Station", "city": "Pilot Station", "state": "AK", "country": "USA", "latitude": 61.93396417, "longitude": -162.8929358 }, "geometry": { "type": "Point", "coordinates": [ -162.8929358, 61.93396417 ] } },
{ "type": "Feature", "properties": { "iata": "0B1", "title": "Col. Dyke", "city": "Bethel", "state": "ME", "country": "USA", "latitude": 44.42506444, "longitude": -70.80784778 }, "geometry": { "type": "Point", "coordinates": [ -70.80784778, 44.42506444 ] } },
{ "type": "Feature", "properties": { "iata": "0B4", "title": "Hartington Municipal", "city": "Hartington", "state": "NE", "country": "USA", "latitude": 42.60355556, "longitude": -97.25263889 }, "geometry": { "type": "Point", "coordinates": [ -97.25263889, 42.60355556 ] } },
{ "type": "Feature", "properties": { "iata": "0B5", "title": "Turners Falls", "city": "Montague", "state": "MA", "country": "USA", "latitude": 42.59136361, "longitude": -72.52275472 }, "geometry": { "type": "Point", "coordinates": [ -72.52275472, 42.59136361 ] } },
{ "type": "Feature", "properties": { "iata": "0B7", "title": "Warren-Sugar Bush", "city": "Warren", "state": "VT", "country": "USA", "latitude": 44.11672722, "longitude": -72.82705806 }, "geometry": { "type": "Point", "coordinates": [ -72.82705806, 44.11672722 ] } },
{ "type": "Feature", "properties": { "iata": "0B8", "title": "Elizabeth", "city": "Fishers Island", "state": "NY", "country": "USA", "latitude": 41.25130806, "longitude": -72.03161139 }, "geometry": { "type": "Point", "coordinates": [ -72.03161139, 41.25130806 ] } },
{ "type": "Feature", "properties": { "iata": "0C0", "title": "Dacy", "city": "Chicago\/Harvard", "state": "IL", "country": "USA", "latitude": 42.40418556, "longitude": -88.63343222 }, "geometry": { "type": "Point", "coordinates": [ -88.63343222, 42.40418556 ] } },
{ "type": "Feature", "properties": { "iata": "0C4", "title": "Pender Municipal", "city": "Pender", "state": "NE", "country": "USA", "latitude": 42.11388722, "longitude": -96.72892556 }, "geometry": { "type": "Point", "coordinates": [ -96.72892556, 42.11388722 ] } },
{ "type": "Feature", "properties": { "iata": "0D1", "title": "South Haven Municipal", "city": "South Haven", "state": "MI", "country": "USA", "latitude": 42.35083333, "longitude": -86.25613889 }, "geometry": { "type": "Point", "coordinates": [ -86.25613889, 42.35083333 ] } },
{ "type": "Feature", "properties": { "iata": "0D8", "title": "Gettysburg Municipal", "city": "Gettysburg", "state": "SD", "country": "USA", "latitude": 44.98730556, "longitude": -99.9535 }, "geometry": { "type": "Point", "coordinates": [ -99.9535, 44.98730556 ] } },
{ "type": "Feature", "properties": { "iata": "0E0", "title": "Moriarty", "city": "Moriarty", "state": "NM", "country": "USA", "latitude": 34.98560639, "longitude": -106.0094661 }, "geometry": { "type": "Point", "coordinates": [ -106.0094661, 34.98560639 ] } },
{ "type": "Feature", "properties": { "iata": "0E8", "title": "Crownpoint", "city": "Crownpoint", "state": "NM", "country": "USA", "latitude": 35.71765889, "longitude": -108.2015961 }, "geometry": { "type": "Point", "coordinates": [ -108.2015961, 35.71765889 ] } },
{ "type": "Feature", "properties": { "iata": "0F2", "title": "Bowie Municipal", "city": "Bowie", "state": "TX", "country": "USA", "latitude": 33.60166667, "longitude": -97.77556 }, "geometry": { "type": "Point", "coordinates": [ -97.77556, 33.60166667 ] } },
{ "type": "Feature", "properties": { "iata": "0F4", "title": "Loup City Municipal", "city": "Loup City", "state": "NE", "country": "USA", "latitude": 41.29028694, "longitude": -98.99064278 }, "geometry": { "type": "Point", "coordinates": [ -98.99064278, 41.29028694 ] } },
{ "type": "Feature", "properties": { "iata": "0F7", "title": "Fountainhead Lodge Airpark", "city": "Eufaula", "state": "OK", "country": "USA", "latitude": 35.38898833, "longitude": -95.60165111000001 }, "geometry": { "type": "Point", "coordinates": [ -95.60165111, 35.38898833 ] } },
{ "type": "Feature", "properties": { "iata": "0F8", "title": "William R Pogue Municipal", "city": "Sand Springs", "state": "OK", "country": "USA", "latitude": 36.17528, "longitude": -96.15181028000001 }, "geometry": { "type": "Point", "coordinates": [ -96.15181028, 36.17528 ] } },
{ "type": "Feature", "properties": { "iata": "0F9", "title": "Tishomingo Airpark", "city": "Tishomingo", "state": "OK", "country": "USA", "latitude": 34.19592833, "longitude": -96.67555694000001 }, "geometry": { "type": "Point", "coordinates": [ -96.67555694, 34.19592833 ] } },
{ "type": "Feature", "properties": { "iata": "0G0", "title": "North Buffalo Suburban", "city": "Lockport", "state": "NY", "country": "USA", "latitude": 43.10318389, "longitude": -78.70334583 }, "geometry": { "type": "Point", "coordinates": [ -78.70334583, 43.10318389 ] } },
{ "type": "Feature", "properties": { "iata": "0G3", "title": "Tecumseh Municipal", "city": "Tecumseh", "state": "NE", "country": "USA", "latitude": 40.39944417, "longitude": -96.17139694 }, "geometry": { "type": "Point", "coordinates": [ -96.17139694, 40.39944417 ] } },
{ "type": "Feature", "properties": { "iata": "0G6", "title": "Williams County", "city": "Bryan", "state": "OH", "country": "USA", "latitude": 41.46736111, "longitude": -84.50655556 }, "geometry": { "type": "Point", "coordinates": [ -84.50655556, 41.46736111 ] } },
{ "type": "Feature", "properties": { "iata": "0G7", "title": "Finger Lakes Regional", "city": "Seneca Falls", "state": "NY", "country": "USA", "latitude": 42.88062278, "longitude": -76.78162028 }, "geometry": { "type": "Point", "coordinates": [ -76.78162028, 42.88062278 ] } },
{ "type": "Feature", "properties": { "iata": "0H1", "title": "Trego Wakeeney", "city": "Wakeeney", "state": "KS", "country": "USA", "latitude": 39.0044525, "longitude": -99.89289917000001 }, "geometry": { "type": "Point", "coordinates": [ -99.89289917, 39.0044525 ] } },
{ "type": "Feature", "properties": { "iata": "0I8", "title": "Cynthiana-Harrison County", "city": "Cynthiana", "state": "KY", "country": "USA", "latitude": 38.36674167, "longitude": -84.28410056 }, "geometry": { "type": "Point", "coordinates": [ -84.28410056, 38.36674167 ] } },
{ "type": "Feature", "properties": { "iata": "0J0", "title": "Abbeville Municipal", "city": "Abbeville", "state": "AL", "country": "USA", "latitude": 31.60016778, "longitude": -85.23882222 }, "geometry": { "type": "Point", "coordinates": [ -85.23882222, 31.60016778 ] } },
{ "type": "Feature", "properties": { "iata": "0J4", "title": "Florala Municipal", "city": "Florala", "state": "AL", "country": "USA", "latitude": 31.04247361, "longitude": -86.31156111 }, "geometry": { "type": "Point", "coordinates": [ -86.31156111, 31.04247361 ] } },
{ "type": "Feature", "properties": { "iata": "0J6", "title": "Headland Municipal", "city": "Headland", "state": "AL", "country": "USA", "latitude": 31.364895, "longitude": -85.30965556 }, "geometry": { "type": "Point", "coordinates": [ -85.30965556, 31.364895 ] } },
{ "type": "Feature", "properties": { "iata": "0K7", "title": "Humboldt Municipal", "city": "Humboldt", "state": "IA", "country": "USA", "latitude": 42.7360825, "longitude": -94.24524167 }, "geometry": { "type": "Point", "coordinates": [ -94.24524167, 42.7360825 ] } },
{ "type": "Feature", "properties": { "iata": "0L5", "title": "Goldfield", "city": "Goldfield", "state": "NV", "country": "USA", "latitude": 37.71798833, "longitude": -117.2384119 }, "geometry": { "type": "Point", "coordinates": [ -117.2384119, 37.71798833 ] } },
{ "type": "Feature", "properties": { "iata": "0L7", "title": "Jean", "city": "Jean", "state": "NV", "country": "USA", "latitude": 35.76827222, "longitude": -115.3296378 }, "geometry": { "type": "Point", "coordinates": [ -115.3296378, 35.76827222 ] } },
{ "type": "Feature", "properties": { "iata": "0L9", "title": "Echo Bay", "city": "Overton", "state": "NV", "country": "USA", "latitude": 36.31108972, "longitude": -114.4638672 }, "geometry": { "type": "Point", "coordinates": [ -114.4638672, 36.31108972 ] } },
{ "type": "Feature", "properties": { "iata": "0M0", "title": "Dumas Municipal", "city": "Dumas", "state": "AR", "country": "USA", "latitude": 33.8845475, "longitude": -91.53429111 }, "geometry": { "type": "Point", "coordinates": [ -91.53429111, 33.8845475 ] } },
{ "type": "Feature", "properties": { "iata": "0M1", "title": "Scott", "city": "Parsons", "state": "TN", "country": "USA", "latitude": 35.63778, "longitude": -88.127995 }, "geometry": { "type": "Point", "coordinates": [ -88.127995, 35.63778 ] } },
{ "type": "Feature", "properties": { "iata": "0M4", "title": "Benton County", "city": "Camden", "state": "TN", "country": "USA", "latitude": 36.01122694, "longitude": -88.12328833 }, "geometry": { "type": "Point", "coordinates": [ -88.12328833, 36.01122694 ] } },
{ "type": "Feature", "properties": { "iata": "0M5", "title": "Humphreys County", "city": "Waverly", "state": "TN", "country": "USA", "latitude": 36.11659972, "longitude": -87.73815889 }, "geometry": { "type": "Point", "coordinates": [ -87.73815889, 36.11659972 ] } },
{ "type": "Feature", "properties": { "iata": "0M6", "title": "Panola County", "city": "Batesville", "state": "MS", "country": "USA", "latitude": 34.36677444, "longitude": -89.90008917 }, "geometry": { "type": "Point", "coordinates": [ -89.90008917, 34.36677444 ] } },
{ "type": "Feature", "properties": { "iata": "0M8", "title": "Byerley", "city": "Lake Providence", "state": "LA", "country": "USA", "latitude": 32.82587917, "longitude": -91.187665 }, "geometry": { "type": "Point", "coordinates": [ -91.187665, 32.82587917 ] } },
{ "type": "Feature", "properties": { "iata": "0O3", "title": "Calaveras Co-Maury Rasmussen", "city": "San Andreas", "state": "CA", "country": "USA", "latitude": 38.14611639, "longitude": -120.6481733 }, "geometry": { "type": "Point", "coordinates": [ -120.6481733, 38.14611639 ] } },
{ "type": "Feature", "properties": { "iata": "0O4", "title": "Corning Municipal", "city": "Corning", "state": "CA", "country": "USA", "latitude": 39.94376806, "longitude": -122.1713781 }, "geometry": { "type": "Point", "coordinates": [ -122.1713781, 39.94376806 ] } },
{ "type": "Feature", "properties": { "iata": "0O5", "title": "University", "city": "Davis", "state": "CA", "country": "USA", "latitude": 38.53146222, "longitude": -121.7864906 }, "geometry": { "type": "Point", "coordinates": [ -121.7864906, 38.53146222 ] } },
{ "type": "Feature", "properties": { "iata": "0Q5", "title": "Shelter Cove", "city": "Shelter Cove", "state": "CA", "country": "USA", "latitude": 40.02764333, "longitude": -124.0733639 }, "geometry": { "type": "Point", "coordinates": [ -124.0733639, 40.02764333 ] } },
{ "type": "Feature", "properties": { "iata": "0Q6", "title": "Shingletown", "city": "Shingletown", "state": "CA", "country": "USA", "latitude": 40.52210111, "longitude": -121.8177683 }, "geometry": { "type": "Point", "coordinates": [ -121.8177683, 40.52210111 ] } },
{ "type": "Feature", "properties": { "iata": "0R0", "title": "Columbia-Marion County", "city": "Columbia", "state": "MS", "country": "USA", "latitude": 31.29700806, "longitude": -89.81282944 }, "geometry": { "type": "Point", "coordinates": [ -89.81282944, 31.29700806 ] } },
{ "type": "Feature", "properties": { "iata": "0R1", "title": "Atmore Municipal", "city": "Atmore", "state": "AL", "country": "USA", "latitude": 31.01621528, "longitude": -87.44675972 }, "geometry": { "type": "Point", "coordinates": [ -87.44675972, 31.01621528 ] } },
{ "type": "Feature", "properties": { "iata": "0R3", "title": "Abbeville Chris Crusta Memorial", "city": "Abbeville", "state": "LA", "country": "USA", "latitude": 29.97576083, "longitude": -92.08415167 }, "geometry": { "type": "Point", "coordinates": [ -92.08415167, 29.97576083 ] } },
{ "type": "Feature", "properties": { "iata": "0R4", "title": "Concordia Parish", "city": "Vidalia", "state": "LA", "country": "USA", "latitude": 31.56683278, "longitude": -91.50011889 }, "geometry": { "type": "Point", "coordinates": [ -91.50011889, 31.56683278 ] } },
{ "type": "Feature", "properties": { "iata": "0R5", "title": "David G Joyce", "city": "Winnfield", "state": "LA", "country": "USA", "latitude": 31.96366222, "longitude": -92.66026056 }, "geometry": { "type": "Point", "coordinates": [ -92.66026056, 31.96366222 ] } },
{ "type": "Feature", "properties": { "iata": "0R7", "title": "Red River", "city": "Coushatta", "state": "LA", "country": "USA", "latitude": 31.99071694, "longitude": -93.30739306 }, "geometry": { "type": "Point", "coordinates": [ -93.30739306, 31.99071694 ] } },
{ "type": "Feature", "properties": { "iata": "0S7", "title": "Dorothy Scott", "city": "Oroville", "state": "WA", "country": "USA", "latitude": 48.958965, "longitude": -119.4119622 }, "geometry": { "type": "Point", "coordinates": [ -119.4119622, 48.958965 ] } },
{ "type": "Feature", "properties": { "iata": "0S9", "title": "Jefferson County International", "city": "Port Townsend", "state": "WA", "country": "USA", "latitude": 48.04981361, "longitude": -122.8012792 }, "geometry": { "type": "Point", "coordinates": [ -122.8012792, 48.04981361 ] } },
{ "type": "Feature", "properties": { "iata": "0V2", "title": "Harriet Alexander", "city": "Salida", "state": "CO", "country": "USA", "latitude": 38.53916389, "longitude": -106.0458483 }, "geometry": { "type": "Point", "coordinates": [ -106.0458483, 38.53916389 ] } },
{ "type": "Feature", "properties": { "iata": "0V3", "title": "Pioneer Village", "city": "Minden", "state": "NE", "country": "USA", "latitude": 40.5149125, "longitude": -98.94565083000001 }, "geometry": { "type": "Point", "coordinates": [ -98.94565083, 40.5149125 ] } },
{ "type": "Feature", "properties": { "iata": "0V4", "title": "Brookneal\/Campbell County", "city": "Brookneal", "state": "VA", "country": "USA", "latitude": 37.14172222, "longitude": -79.01638889 }, "geometry": { "type": "Point", "coordinates": [ -79.01638889, 37.14172222 ] } },
{ "type": "Feature", "properties": { "iata": "0V6", "title": "Mission Sioux", "city": "Mission", "state": "SD", "country": "USA", "latitude": 43.30694778, "longitude": -100.6281936 }, "geometry": { "type": "Point", "coordinates": [ -100.6281936, 43.30694778 ] } },
{ "type": "Feature", "properties": { "iata": "0V7", "title": "Kayenta", "city": "Kayenta", "state": "AZ", "country": "USA", "latitude": 36.70972139, "longitude": -110.2367978 }, "geometry": { "type": "Point", "coordinates": [ -110.2367978, 36.70972139 ] } },
{ "type": "Feature", "properties": { "iata": "10C", "title": "Galt", "city": "Chicago\/Greenwood\/Wonderlake", "state": "IL", "country": "USA", "latitude": 42.40266472, "longitude": -88.37588917 }, "geometry": { "type": "Point", "coordinates": [ -88.37588917, 42.40266472 ] } },
{ "type": "Feature", "properties": { "iata": "10D", "title": "Winsted Municipal", "city": "Winsted", "state": "MN", "country": "USA", "latitude": 44.94996278, "longitude": -94.0669175 }, "geometry": { "type": "Point", "coordinates": [ -94.0669175, 44.94996278 ] } },
{ "type": "Feature", "properties": { "iata": "10G", "title": "Holmes County", "city": "Millersburg", "state": "OH", "country": "USA", "latitude": 40.53716667, "longitude": -81.95436111 }, "geometry": { "type": "Point", "coordinates": [ -81.95436111, 40.53716667 ] } },
{ "type": "Feature", "properties": { "iata": "10N", "title": "Wallkill", "city": "Wallkill", "state": "NY", "country": "USA", "latitude": 41.62787111, "longitude": -74.13375583 }, "geometry": { "type": "Point", "coordinates": [ -74.13375583, 41.62787111 ] } },
{ "type": "Feature", "properties": { "iata": "10U", "title": "Owyhee", "city": "Owyhee", "state": "NV", "country": "USA", "latitude": 41.95323306, "longitude": -116.1876014 }, "geometry": { "type": "Point", "coordinates": [ -116.1876014, 41.95323306 ] } },
{ "type": "Feature", "properties": { "iata": "11A", "title": "Clayton Municipal", "city": "Clayton", "state": "AL", "country": "USA", "latitude": 31.88329917, "longitude": -85.48491361000001 }, "geometry": { "type": "Point", "coordinates": [ -85.48491361, 31.88329917 ] } },
{ "type": "Feature", "properties": { "iata": "11D", "title": "Clarion Cty", "city": "Clarion", "state": "PA", "country": "USA", "latitude": 41.22581222, "longitude": -79.44098972 }, "geometry": { "type": "Point", "coordinates": [ -79.44098972, 41.22581222 ] } },
{ "type": "Feature", "properties": { "iata": "11IS", "title": "Schaumburg Heliport", "city": "Chicago\/Schaumburg", "state": "IL", "country": "USA", "latitude": 42.04808278, "longitude": -88.05257194000001 }, "geometry": { "type": "Point", "coordinates": [ -88.05257194, 42.04808278 ] } },
{ "type": "Feature", "properties": { "iata": "11J", "title": "Early County", "city": "Blakely", "state": "GA", "country": "USA", "latitude": 31.39698611, "longitude": -84.89525694 }, "geometry": { "type": "Point", "coordinates": [ -84.89525694, 31.39698611 ] } },
{ "type": "Feature", "properties": { "iata": "11R", "title": "Brenham Municipal", "city": "Brenham", "state": "TX", "country": "USA", "latitude": 30.219, "longitude": -96.37427778 }, "geometry": { "type": "Point", "coordinates": [ -96.37427778, 30.219 ] } },
{ "type": "Feature", "properties": { "iata": "12C", "title": "Rochelle Municipal", "city": "Rochelle", "state": "IL", "country": "USA", "latitude": 41.89300139, "longitude": -89.07829 }, "geometry": { "type": "Point", "coordinates": [ -89.07829, 41.89300139 ] } },
{ "type": "Feature", "properties": { "iata": "12D", "title": "Tower Municipal", "city": "Tower", "state": "MN", "country": "USA", "latitude": 47.81833333, "longitude": -92.29166667 }, "geometry": { "type": "Point", "coordinates": [ -92.29166667, 47.81833333 ] } },
{ "type": "Feature", "properties": { "iata": "12J", "title": "Brewton Municipal", "city": "Brewton", "state": "AL", "country": "USA", "latitude": 31.05126306, "longitude": -87.06796833 }, "geometry": { "type": "Point", "coordinates": [ -87.06796833, 31.05126306 ] } },
{ "type": "Feature", "properties": { "iata": "12K", "title": "Superior Municipal", "city": "Superior", "state": "NE", "country": "USA", "latitude": 40.04636111, "longitude": -98.06011111 }, "geometry": { "type": "Point", "coordinates": [ -98.06011111, 40.04636111 ] } },
{ "type": "Feature", "properties": { "iata": "12Y", "title": "Le Sueur Municipal", "city": "Le Sueur", "state": "MN", "country": "USA", "latitude": 44.43746472, "longitude": -93.91274083 }, "geometry": { "type": "Point", "coordinates": [ -93.91274083, 44.43746472 ] } },
{ "type": "Feature", "properties": { "iata": "13C", "title": "Lakeview", "city": "Lakeview", "state": "MI", "country": "USA", "latitude": 43.45213722, "longitude": -85.26480333000001 }, "geometry": { "type": "Point", "coordinates": [ -85.26480333, 43.45213722 ] } },
{ "type": "Feature", "properties": { "iata": "13K", "title": "Eureka Municipal", "city": "Eureka", "state": "KS", "country": "USA", "latitude": 37.8515825, "longitude": -96.29169806 }, "geometry": { "type": "Point", "coordinates": [ -96.29169806, 37.8515825 ] } },
{ "type": "Feature", "properties": { "iata": "13N", "title": "Trinca", "city": "Andover", "state": "NJ", "country": "USA", "latitude": 40.96676444, "longitude": -74.78016556 }, "geometry": { "type": "Point", "coordinates": [ -74.78016556, 40.96676444 ] } },
{ "type": "Feature", "properties": { "iata": "14J", "title": "Carl Folsom", "city": "Elba", "state": "AL", "country": "USA", "latitude": 31.40988861, "longitude": -86.08883583 }, "geometry": { "type": "Point", "coordinates": [ -86.08883583, 31.40988861 ] } },
{ "type": "Feature", "properties": { "iata": "14M", "title": "Hollandale Municipal", "city": "Hollandale", "state": "MS", "country": "USA", "latitude": 33.18262167, "longitude": -90.83065444 }, "geometry": { "type": "Point", "coordinates": [ -90.83065444, 33.18262167 ] } },
{ "type": "Feature", "properties": { "iata": "14Y", "title": "Todd Field", "city": "Long Prairie", "state": "MN", "country": "USA", "latitude": 45.89857556, "longitude": -94.87391 }, "geometry": { "type": "Point", "coordinates": [ -94.87391, 45.89857556 ] } },
{ "type": "Feature", "properties": { "iata": "15F", "title": "Haskell Municipal", "city": "Haskell", "state": "TX", "country": "USA", "latitude": 33.19155556, "longitude": -99.71793056 }, "geometry": { "type": "Point", "coordinates": [ -99.71793056, 33.19155556 ] } },
{ "type": "Feature", "properties": { "iata": "15J", "title": "Cook County", "city": "Adel", "state": "GA", "country": "USA", "latitude": 31.13780556, "longitude": -83.45308333 }, "geometry": { "type": "Point", "coordinates": [ -83.45308333, 31.13780556 ] } },
{ "type": "Feature", "properties": { "iata": "15M", "title": "Luka", "city": "Luka", "state": "MS", "country": "USA", "latitude": 34.7723125, "longitude": -88.16587444 }, "geometry": { "type": "Point", "coordinates": [ -88.16587444, 34.7723125 ] } },
{ "type": "Feature", "properties": { "iata": "15Z", "title": "McCarthy 2", "city": "McCarthy", "state": "AK", "country": "USA", "latitude": 61.43706083, "longitude": -142.9037372 }, "geometry": { "type": "Point", "coordinates": [ -142.9037372, 61.43706083 ] } },
{ "type": "Feature", "properties": { "iata": "16A", "title": "Nunapitchuk", "city": "Nunapitchuk", "state": "AK", "country": "USA", "latitude": 60.90582833, "longitude": -162.4391158 }, "geometry": { "type": "Point", "coordinates": [ -162.4391158, 60.90582833 ] } },
{ "type": "Feature", "properties": { "iata": "16G", "title": "Seneca County", "city": "Tiffin", "state": "OH", "country": "USA", "latitude": 41.09405556, "longitude": -83.2125 }, "geometry": { "type": "Point", "coordinates": [ -83.2125, 41.09405556 ] } },
{ "type": "Feature", "properties": { "iata": "16J", "title": "Dawson Municipal", "city": "Dawson", "state": "GA", "country": "USA", "latitude": 31.74328472, "longitude": -84.419285 }, "geometry": { "type": "Point", "coordinates": [ -84.419285, 31.74328472 ] } },
{ "type": "Feature", "properties": { "iata": "16S", "title": "Myrtle Creek Municipal", "city": "Myrtle Creek", "state": "OR", "country": "USA", "latitude": 42.99845056, "longitude": -123.3095092 }, "geometry": { "type": "Point", "coordinates": [ -123.3095092, 42.99845056 ] } },
{ "type": "Feature", "properties": { "iata": "17G", "title": "Port Bucyrus-Crawford County", "city": "Bucyrus", "state": "OH", "country": "USA", "latitude": 40.78141667, "longitude": -82.97469444 }, "geometry": { "type": "Point", "coordinates": [ -82.97469444, 40.78141667 ] } },
{ "type": "Feature", "properties": { "iata": "17J", "title": "Donalsonville Municipal", "city": "Donalsonville", "state": "GA", "country": "USA", "latitude": 31.00694444, "longitude": -84.87761111 }, "geometry": { "type": "Point", "coordinates": [ -84.87761111, 31.00694444 ] } },
{ "type": "Feature", "properties": { "iata": "17K", "title": "Boise City", "city": "Boise City", "state": "OK", "country": "USA", "latitude": 36.77430028, "longitude": -102.5104364 }, "geometry": { "type": "Point", "coordinates": [ -102.5104364, 36.77430028 ] } },
{ "type": "Feature", "properties": { "iata": "17M", "title": "Magee Municipal", "city": "Magee", "state": "MS", "country": "USA", "latitude": 31.86127139, "longitude": -89.80285361 }, "geometry": { "type": "Point", "coordinates": [ -89.80285361, 31.86127139 ] } },
{ "type": "Feature", "properties": { "iata": "17N", "title": "Cross Keys", "city": "Cross Keys", "state": "NJ", "country": "USA", "latitude": 39.70547583, "longitude": -75.03300306 }, "geometry": { "type": "Point", "coordinates": [ -75.03300306, 39.70547583 ] } },
{ "type": "Feature", "properties": { "iata": "17Z", "title": "Manokotak", "city": "Manokotak", "state": "AK", "country": "USA", "latitude": 58.98896583, "longitude": -159.0499739 }, "geometry": { "type": "Point", "coordinates": [ -159.0499739, 58.98896583 ] } },
{ "type": "Feature", "properties": { "iata": "18A", "title": "Franklin County", "city": "Canon", "state": "GA", "country": "USA", "latitude": 34.34010472, "longitude": -83.13348333 }, "geometry": { "type": "Point", "coordinates": [ -83.13348333, 34.34010472 ] } },
{ "type": "Feature", "properties": { "iata": "18I", "title": "McCreary County", "city": "Pine Knot", "state": "KY", "country": "USA", "latitude": 36.69591306, "longitude": -84.39160389 }, "geometry": { "type": "Point", "coordinates": [ -84.39160389, 36.69591306 ] } },
{ "type": "Feature", "properties": { "iata": "19A", "title": "Jackson County", "city": "Jefferson", "state": "GA", "country": "USA", "latitude": 34.17402472, "longitude": -83.56066528 }, "geometry": { "type": "Point", "coordinates": [ -83.56066528, 34.17402472 ] } },
{ "type": "Feature", "properties": { "iata": "19M", "title": "C A Moore", "city": "Lexington", "state": "MS", "country": "USA", "latitude": 33.12546111, "longitude": -90.02555694 }, "geometry": { "type": "Point", "coordinates": [ -90.02555694, 33.12546111 ] } },
{ "type": "Feature", "properties": { "iata": "19N", "title": "Camden", "city": "Berlin", "state": "NJ", "country": "USA", "latitude": 39.77842056, "longitude": -74.94780389 }, "geometry": { "type": "Point", "coordinates": [ -74.94780389, 39.77842056 ] } },
{ "type": "Feature", "properties": { "iata": "19P", "title": "Port Protection SPB", "city": "Port Protection", "state": "AK", "country": "USA", "latitude": 56.32880417, "longitude": -133.6100844 }, "geometry": { "type": "Point", "coordinates": [ -133.6100844, 56.32880417 ] } },
{ "type": "Feature", "properties": { "iata": "1A3", "title": "Martin Campbell", "city": "Copperhill", "state": "TN", "country": "USA", "latitude": 35.01619111, "longitude": -84.34631083 }, "geometry": { "type": "Point", "coordinates": [ -84.34631083, 35.01619111 ] } },
{ "type": "Feature", "properties": { "iata": "1A5", "title": "Macon County", "city": "Franklin", "state": "NC", "country": "USA", "latitude": 35.222595, "longitude": -83.41904389 }, "geometry": { "type": "Point", "coordinates": [ -83.41904389, 35.222595 ] } },
{ "type": "Feature", "properties": { "iata": "1A6", "title": "Middlesboro-Bell County", "city": "Middlesboro", "state": "KY", "country": "USA", "latitude": 36.6106375, "longitude": -83.73741611 }, "geometry": { "type": "Point", "coordinates": [ -83.73741611, 36.6106375 ] } },
{ "type": "Feature", "properties": { "iata": "1A7", "title": "Jackson County", "city": "Gainesboro", "state": "TN", "country": "USA", "latitude": 36.39728139, "longitude": -85.64164278 }, "geometry": { "type": "Point", "coordinates": [ -85.64164278, 36.39728139 ] } },
{ "type": "Feature", "properties": { "iata": "1A9", "title": "Autauga County", "city": "Prattville", "state": "AL", "country": "USA", "latitude": 32.438775, "longitude": -86.51044778000001 }, "geometry": { "type": "Point", "coordinates": [ -86.51044778, 32.438775 ] } },
{ "type": "Feature", "properties": { "iata": "1B0", "title": "Dexter Regional", "city": "Dexter", "state": "ME", "country": "USA", "latitude": 45.00839444, "longitude": -69.23976722 }, "geometry": { "type": "Point", "coordinates": [ -69.23976722, 45.00839444 ] } },
{ "type": "Feature", "properties": { "iata": "1B1", "title": "Columbia Cty", "city": "Hudson", "state": "NY", "country": "USA", "latitude": 42.29130028, "longitude": -73.71031944000001 }, "geometry": { "type": "Point", "coordinates": [ -73.71031944, 42.29130028 ] } },
{ "type": "Feature", "properties": { "iata": "1B3", "title": "Fair Haven", "city": "Fair Haven", "state": "VT", "country": "USA", "latitude": 43.61534389, "longitude": -73.27455556 }, "geometry": { "type": "Point", "coordinates": [ -73.27455556, 43.61534389 ] } },
{ "type": "Feature", "properties": { "iata": "1B9", "title": "Mansfield Municipal", "city": "Mansfield", "state": "MA", "country": "USA", "latitude": 42.00013306, "longitude": -71.19677139 }, "geometry": { "type": "Point", "coordinates": [ -71.19677139, 42.00013306 ] } },
{ "type": "Feature", "properties": { "iata": "1C5", "title": "Clow", "city": "Chicago\/Plainfield", "state": "IL", "country": "USA", "latitude": 41.69597444, "longitude": -88.12923056 }, "geometry": { "type": "Point", "coordinates": [ -88.12923056, 41.69597444 ] } },
{ "type": "Feature", "properties": { "iata": "1D1", "title": "Milbank Municipal", "city": "Milbank", "state": "SD", "country": "USA", "latitude": 45.23053806, "longitude": -96.56596556 }, "geometry": { "type": "Point", "coordinates": [ -96.56596556, 45.23053806 ] } },
{ "type": "Feature", "properties": { "iata": "1D2", "title": "Canton -Plymouth -  Mettetal", "city": "Plymouth", "state": "MI", "country": "USA", "latitude": 42.35003667, "longitude": -83.45826833 }, "geometry": { "type": "Point", "coordinates": [ -83.45826833, 42.35003667 ] } },
{ "type": "Feature", "properties": { "iata": "1D3", "title": "Platte Municipal", "city": "Platte", "state": "SD", "country": "USA", "latitude": 43.40332833, "longitude": -98.82952972 }, "geometry": { "type": "Point", "coordinates": [ -98.82952972, 43.40332833 ] } },
{ "type": "Feature", "properties": { "iata": "1D6", "title": "Hector Municipal", "city": "Hector", "state": "MN", "country": "USA", "latitude": 44.73107278, "longitude": -94.71471333 }, "geometry": { "type": "Point", "coordinates": [ -94.71471333, 44.73107278 ] } },
{ "type": "Feature", "properties": { "iata": "1D7", "title": "Webster Municipal", "city": "Webster", "state": "SD", "country": "USA", "latitude": 45.29329111, "longitude": -97.51369889 }, "geometry": { "type": "Point", "coordinates": [ -97.51369889, 45.29329111 ] } },
{ "type": "Feature", "properties": { "iata": "1D8", "title": "Redfield Municipal", "city": "Redfield", "state": "SD", "country": "USA", "latitude": 44.86247611, "longitude": -98.52953972 }, "geometry": { "type": "Point", "coordinates": [ -98.52953972, 44.86247611 ] } },
{ "type": "Feature", "properties": { "iata": "1F0", "title": "Downtown Ardmore", "city": "Ardmore", "state": "OK", "country": "USA", "latitude": 34.14698917, "longitude": -97.12265194 }, "geometry": { "type": "Point", "coordinates": [ -97.12265194, 34.14698917 ] } },
{ "type": "Feature", "properties": { "iata": "1F1", "title": "Lake Murray State Park", "city": "Overbrook", "state": "OK", "country": "USA", "latitude": 34.07509694, "longitude": -97.10667917000001 }, "geometry": { "type": "Point", "coordinates": [ -97.10667917, 34.07509694 ] } },
{ "type": "Feature", "properties": { "iata": "1F4", "title": "Madill Municipal", "city": "Madill", "state": "OK", "country": "USA", "latitude": 34.14040194, "longitude": -96.81203222000001 }, "geometry": { "type": "Point", "coordinates": [ -96.81203222, 34.14040194 ] } },
{ "type": "Feature", "properties": { "iata": "1F9", "title": "Bridgeport Municipal", "city": "Bridgeport", "state": "TX", "country": "USA", "latitude": 33.17533333, "longitude": -97.82838889 }, "geometry": { "type": "Point", "coordinates": [ -97.82838889, 33.17533333 ] } },
{ "type": "Feature", "properties": { "iata": "1G0", "title": "Wood County", "city": "Bowling Green", "state": "OH", "country": "USA", "latitude": 41.391, "longitude": -83.63013889 }, "geometry": { "type": "Point", "coordinates": [ -83.63013889, 41.391 ] } },
{ "type": "Feature", "properties": { "iata": "1G3", "title": "Kent State University", "city": "Kent", "state": "OH", "country": "USA", "latitude": 41.15186167, "longitude": -81.41658306 }, "geometry": { "type": "Point", "coordinates": [ -81.41658306, 41.15186167 ] } },
{ "type": "Feature", "properties": { "iata": "1G4", "title": "Grand Canyon West", "city": "Peach Springs", "state": "AZ", "country": "USA", "latitude": 35.99221, "longitude": -113.8166164 }, "geometry": { "type": "Point", "coordinates": [ -113.8166164, 35.99221 ] } },
{ "type": "Feature", "properties": { "iata": "1G5", "title": "Freedom", "city": "Medina", "state": "OH", "country": "USA", "latitude": 41.13144444, "longitude": -81.76491667000001 }, "geometry": { "type": "Point", "coordinates": [ -81.76491667, 41.13144444 ] } },
{ "type": "Feature", "properties": { "iata": "1G6", "title": "Michael", "city": "Cicero", "state": "NY", "country": "USA", "latitude": 43.18166667, "longitude": -76.12777778 }, "geometry": { "type": "Point", "coordinates": [ -76.12777778, 43.18166667 ] } },
{ "type": "Feature", "properties": { "iata": "1H0", "title": "Creve Coeur", "city": "St Louis", "state": "MO", "country": "USA", "latitude": 38.72752, "longitude": -90.50830417 }, "geometry": { "type": "Point", "coordinates": [ -90.50830417, 38.72752 ] } },
{ "type": "Feature", "properties": { "iata": "1H2", "title": "Effingham County Memorial", "city": "Effingham", "state": "IL", "country": "USA", "latitude": 39.07045083, "longitude": -88.53351972 }, "geometry": { "type": "Point", "coordinates": [ -88.53351972, 39.07045083 ] } },
{ "type": "Feature", "properties": { "iata": "1H3", "title": "Linn State Tech. College", "city": "Linn", "state": "MO", "country": "USA", "latitude": 38.47149444, "longitude": -91.81531667 }, "geometry": { "type": "Point", "coordinates": [ -91.81531667, 38.47149444 ] } },
{ "type": "Feature", "properties": { "iata": "1H8", "title": "Casey Municipal", "city": "Casey", "state": "IL", "country": "USA", "latitude": 39.30250917, "longitude": -88.00406194 }, "geometry": { "type": "Point", "coordinates": [ -88.00406194, 39.30250917 ] } },
{ "type": "Feature", "properties": { "iata": "1I5", "title": "Freehold", "city": "Freehold", "state": "NY", "country": "USA", "latitude": 42.36425, "longitude": -74.06596806 }, "geometry": { "type": "Point", "coordinates": [ -74.06596806, 42.36425 ] } },
{ "type": "Feature", "properties": { "iata": "1I9", "title": "Delphi Municipal", "city": "Delphi", "state": "IN", "country": "USA", "latitude": 40.54281417, "longitude": -86.68167194 }, "geometry": { "type": "Point", "coordinates": [ -86.68167194, 40.54281417 ] } },
{ "type": "Feature", "properties": { "iata": "1J0", "title": "Tri-County", "city": "Bonifay", "state": "FL", "country": "USA", "latitude": 30.84577778, "longitude": -85.60138889 }, "geometry": { "type": "Point", "coordinates": [ -85.60138889, 30.84577778 ] } },
{ "type": "Feature", "properties": { "iata": "1K2", "title": "Lindsay Municipal", "city": "Lindsay", "state": "OK", "country": "USA", "latitude": 34.85007333, "longitude": -97.58642028 }, "geometry": { "type": "Point", "coordinates": [ -97.58642028, 34.85007333 ] } },
{ "type": "Feature", "properties": { "iata": "1K4", "title": "David J. Perry", "city": "Goldsby", "state": "OK", "country": "USA", "latitude": 35.1550675, "longitude": -97.47039389 }, "geometry": { "type": "Point", "coordinates": [ -97.47039389, 35.1550675 ] } },
{ "type": "Feature", "properties": { "iata": "1K5", "title": "Waynoka Municipal", "city": "Waynoka", "state": "OK", "country": "USA", "latitude": 36.56670028, "longitude": -98.85231333 }, "geometry": { "type": "Point", "coordinates": [ -98.85231333, 36.56670028 ] } },
{ "type": "Feature", "properties": { "iata": "1K9", "title": "Satanta Municipal", "city": "Satanta", "state": "KS", "country": "USA", "latitude": 37.45419111, "longitude": -100.9921119 }, "geometry": { "type": "Point", "coordinates": [ -100.9921119, 37.45419111 ] } },
{ "type": "Feature", "properties": { "iata": "1L0", "title": "St. John the Baptist Parish", "city": "Reserve", "state": "LA", "country": "USA", "latitude": 30.08720833, "longitude": -90.58266528 }, "geometry": { "type": "Point", "coordinates": [ -90.58266528, 30.08720833 ] } },
{ "type": "Feature", "properties": { "iata": "1L1", "title": "Lincoln Co", "city": "Panaca", "state": "NV", "country": "USA", "latitude": 37.78746444, "longitude": -114.4216567 }, "geometry": { "type": "Point", "coordinates": [ -114.4216567, 37.78746444 ] } },
{ "type": "Feature", "properties": { "iata": "1L7", "title": "Escalante Municipal", "city": "Escalante", "state": "UT", "country": "USA", "latitude": 37.74532639, "longitude": -111.5701653 }, "geometry": { "type": "Point", "coordinates": [ -111.5701653, 37.74532639 ] } },
{ "type": "Feature", "properties": { "iata": "1L9", "title": "Parowan", "city": "Parowan", "state": "UT", "country": "USA", "latitude": 37.85969694, "longitude": -112.816055 }, "geometry": { "type": "Point", "coordinates": [ -112.816055, 37.85969694 ] } },
{ "type": "Feature", "properties": { "iata": "1M1", "title": "North Little Rock Municipal", "city": "No Lit Rock", "state": "AR", "country": "USA", "latitude": 34.83398056, "longitude": -92.25792778 }, "geometry": { "type": "Point", "coordinates": [ -92.25792778, 34.83398056 ] } },
{ "type": "Feature", "properties": { "iata": "1M2", "title": "Belzoni Municipal", "city": "Belzoni", "state": "MS", "country": "USA", "latitude": 33.14518056, "longitude": -90.51528472 }, "geometry": { "type": "Point", "coordinates": [ -90.51528472, 33.14518056 ] } },
{ "type": "Feature", "properties": { "iata": "1M4", "title": "Posey", "city": "Haleyville", "state": "AL", "country": "USA", "latitude": 34.28034806, "longitude": -87.60044139 }, "geometry": { "type": "Point", "coordinates": [ -87.60044139, 34.28034806 ] } },
{ "type": "Feature", "properties": { "iata": "1M5", "title": "Portland Municipal", "city": "Portland", "state": "TN", "country": "USA", "latitude": 36.59287528, "longitude": -86.47691028 }, "geometry": { "type": "Point", "coordinates": [ -86.47691028, 36.59287528 ] } },
{ "type": "Feature", "properties": { "iata": "1M7", "title": "Fulton", "city": "Fulton", "state": "KY", "country": "USA", "latitude": 36.52589417, "longitude": -88.91561611 }, "geometry": { "type": "Point", "coordinates": [ -88.91561611, 36.52589417 ] } },
{ "type": "Feature", "properties": { "iata": "1MO", "title": "Mountain Grove Memorial", "city": "Mountain Grove", "state": "MO", "country": "USA", "latitude": 37.12071889, "longitude": -92.311245 }, "geometry": { "type": "Point", "coordinates": [ -92.311245, 37.12071889 ] } },
{ "type": "Feature", "properties": { "iata": "1N2", "title": "Spadaro", "city": "East Moriches", "state": "NY", "country": "USA", "latitude": 40.82787639, "longitude": -72.74871083 }, "geometry": { "type": "Point", "coordinates": [ -72.74871083, 40.82787639 ] } },
{ "type": "Feature", "properties": { "iata": "1N4", "title": "Woodbine Muni", "city": "Woodbine", "state": "NJ", "country": "USA", "latitude": 39.21915, "longitude": -74.794765 }, "geometry": { "type": "Point", "coordinates": [ -74.794765, 39.21915 ] } },
{ "type": "Feature", "properties": { "iata": "1N7", "title": "Blairstown", "city": "Blairstown", "state": "NJ", "country": "USA", "latitude": 40.97114556, "longitude": -74.99747556 }, "geometry": { "type": "Point", "coordinates": [ -74.99747556, 40.97114556 ] } },
{ "type": "Feature", "properties": { "iata": "1N9", "title": "Allentown Queen City Muni", "city": "Allentown", "state": "PA", "country": "USA", "latitude": 40.57027778, "longitude": -75.48830556 }, "geometry": { "type": "Point", "coordinates": [ -75.48830556, 40.57027778 ] } },
{ "type": "Feature", "properties": { "iata": "1ND3", "title": "Hamry", "city": "Kindred", "state": "ND", "country": "USA", "latitude": 46.6485775, "longitude": -97.00564306 }, "geometry": { "type": "Point", "coordinates": [ -97.00564306, 46.6485775 ] } },
{ "type": "Feature", "properties": { "iata": "1O1", "title": "Grandfield Municipal", "city": "Grandfield", "state": "OK", "country": "USA", "latitude": 34.23758944, "longitude": -98.74200917 }, "geometry": { "type": "Point", "coordinates": [ -98.74200917, 34.23758944 ] } },
{ "type": "Feature", "properties": { "iata": "1O2", "title": "Lampson", "city": "Lakeport", "state": "CA", "country": "USA", "latitude": 38.99017472, "longitude": -122.8997175 }, "geometry": { "type": "Point", "coordinates": [ -122.8997175, 38.99017472 ] } },
{ "type": "Feature", "properties": { "iata": "1O3", "title": "Lodi", "city": "Lodi", "state": "CA", "country": "USA", "latitude": 38.20241667, "longitude": -121.2684167 }, "geometry": { "type": "Point", "coordinates": [ -121.2684167, 38.20241667 ] } },
{ "type": "Feature", "properties": { "iata": "1O4", "title": "Thomas Municipal", "city": "Thomas", "state": "OK", "country": "USA", "latitude": 35.73338222, "longitude": -98.73063833 }, "geometry": { "type": "Point", "coordinates": [ -98.73063833, 35.73338222 ] } },
{ "type": "Feature", "properties": { "iata": "1O6", "title": "Dunsmuir Municipal-Mott", "city": "Dunsmuir", "state": "CA", "country": "USA", "latitude": 41.26320889, "longitude": -122.2719528 }, "geometry": { "type": "Point", "coordinates": [ -122.2719528, 41.26320889 ] } },
{ "type": "Feature", "properties": { "iata": "1R1", "title": "Jena", "city": "Jena", "state": "LA", "country": "USA", "latitude": 31.671005, "longitude": -92.15846722000001 }, "geometry": { "type": "Point", "coordinates": [ -92.15846722, 31.671005 ] } },
{ "type": "Feature", "properties": { "iata": "1R7", "title": "Brookhaven-Lincoln County", "city": "Brookhaven", "state": "MS", "country": "USA", "latitude": 31.6058475, "longitude": -90.40931583 }, "geometry": { "type": "Point", "coordinates": [ -90.40931583, 31.6058475 ] } },
{ "type": "Feature", "properties": { "iata": "1R8", "title": "Bay Minette Municipal", "city": "Bay Minette", "state": "AL", "country": "USA", "latitude": 30.87046278, "longitude": -87.81738167 }, "geometry": { "type": "Point", "coordinates": [ -87.81738167, 30.87046278 ] } },
{ "type": "Feature", "properties": { "iata": "1S0", "title": "Pierce County", "city": "Puyallup", "state": "WA", "country": "USA", "latitude": 47.10391667, "longitude": -122.2871944 }, "geometry": { "type": "Point", "coordinates": [ -122.2871944, 47.10391667 ] } },
{ "type": "Feature", "properties": { "iata": "1S3", "title": "Tillitt", "city": "Forsyth", "state": "MT", "country": "USA", "latitude": 46.27110639, "longitude": -106.6239206 }, "geometry": { "type": "Point", "coordinates": [ -106.6239206, 46.27110639 ] } },
{ "type": "Feature", "properties": { "iata": "1S5", "title": "Sunnyside Municipal", "city": "Sunnyside", "state": "WA", "country": "USA", "latitude": 46.32763139, "longitude": -119.9705964 }, "geometry": { "type": "Point", "coordinates": [ -119.9705964, 46.32763139 ] } },
{ "type": "Feature", "properties": { "iata": "1S6", "title": "Priest River Muni", "city": "Priest River", "state": "ID", "country": "USA", "latitude": 48.19018611, "longitude": -116.9093644 }, "geometry": { "type": "Point", "coordinates": [ -116.9093644, 48.19018611 ] } },
{ "type": "Feature", "properties": { "iata": "1U7", "title": "Bear Lake County", "city": "Paris", "state": "ID", "country": "USA", "latitude": 42.24714972, "longitude": -111.33826 }, "geometry": { "type": "Point", "coordinates": [ -111.33826, 42.24714972 ] } },
{ "type": "Feature", "properties": { "iata": "1V0", "title": "Navajo State Park", "city": "Navajo Dam", "state": "NM", "country": "USA", "latitude": 36.80833833, "longitude": -107.6514444 }, "geometry": { "type": "Point", "coordinates": [ -107.6514444, 36.80833833 ] } },
{ "type": "Feature", "properties": { "iata": "1V2", "title": "Grant County", "city": "Hyannis", "state": "NE", "country": "USA", "latitude": 42.00942944, "longitude": -101.7693439 }, "geometry": { "type": "Point", "coordinates": [ -101.7693439, 42.00942944 ] } }
]
}
